{ "dataPoints": [{"type":"Feature","geometry":{"type":"Point","coordinates":[-104.99917,39.74603]},"properties":{"name":"University of Colorado"}}, 
{"type":"Feature","geometry":{"type":"Point","coordinates":[-104.98306,39.75589]},"properties":{"name":"Montessori Academy of Colorado"}}, 
{"type":"Feature","geometry":{"type":"Point","coordinates":[-104.93993639946,39.7026427341476]},"properties":{"name":"Great Play"}}, 
{"type":"Feature","geometry":{"type":"Point","coordinates":[-105.004661560059,39.7457084655762]},"properties":{"name":"Tivoli Student Union"}}, 
{"type":"Feature","geometry":{"type":"Point","coordinates":[-104.938705444336,39.6743812561035]},"properties":{"name":"Iliff Preschool, Kindergarten, and School-Age Summer Camp"}}, 
{"type":"Feature","geometry":{"type":"Point","coordinates":[-105.015640258789,39.795051574707]},"properties":{"name":"Square One Learning"}}, 
{"type":"Feature","geometry":{"type":"Point","coordinates":[-104.9595149,39.6767501]},"properties":{"name":"University of Denver"}}, 
{"type":"Feature","geometry":{"type":"Point","coordinates":[-105.003339,39.744763]},"properties":{"name":"Community College of Denver"}}, 
{"type":"Feature","geometry":{"type":"Point","coordinates":[-105.0327873,39.7710522]},"properties":{"name":"The Goddard School"}}, 
{"type":"Feature","geometry":{"type":"Point","coordinates":[-105.006047487259,39.7435437641391]},"properties":{"name":"King Center"}}, 
{"type":"Feature","geometry":{"type":"Point","coordinates":[-104.984639068787,39.739167]},"properties":{"name":"Preparing for Denver Kindergarten"}}, 
{"type":"Feature","geometry":{"type":"Point","coordinates":[-104.962705224862,39.7437713138793]},"properties":{"name":"The Goddard School"}}, 
{"type":"Feature","geometry":{"type":"Point","coordinates":[-104.976138,39.6823733]},"properties":{"name":"Martin School of Early Education"}}, 
{"type":"Feature","geometry":{"type":"Point","coordinates":[-105.02007,39.75817]},"properties":{"name":"Highlands Academy"}}, 
{"type":"Feature","geometry":{"type":"Point","coordinates":[-104.93051,39.71003]},"properties":{"name":"Staenberg-Loup Jewish Community Center"}}, 
{"type":"Feature","geometry":{"type":"Point","coordinates":[-105.003685992994,39.7407117423039]},"properties":{"name":"Auraria Early Learning Center"}}, 
{"type":"Feature","geometry":{"type":"Point","coordinates":[-104.91337,39.7128]},"properties":{"name":"Crestmoor Learning Center"}}, 
{"type":"Feature","geometry":{"type":"Point","coordinates":[-105.0018359,39.7402949]},"properties":{"name":"Tivoli Student Union"}}, 
{"type":"Feature","geometry":{"type":"Point","coordinates":[-105.00742,39.74632]},"properties":{"name":"Auraria Higher Education Center"}}, 
{"type":"Feature","geometry":{"type":"Point","coordinates":[-104.96252,39.8618499]},"properties":{"name":"A Child's Touch"}}, 
{"type":"Feature","geometry":{"type":"Point","coordinates":[-104.952255,39.7316559]},"properties":{"name":"Sewall Child Development Center"}}, 
{"type":"Feature","geometry":{"type":"Point","coordinates":[-105.030629,39.789133]},"properties":{"name":"Regis University"}}, 
{"type":"Feature","geometry":{"type":"Point","coordinates":[-104.95613,39.7416]},"properties":{"name":"East High School"}}, 
{"type":"Feature","geometry":{"type":"Point","coordinates":[-104.915069580078,39.7058906555176]},"properties":{"name":"George Washington High School"}}, 
{"type":"Feature","geometry":{"type":"Point","coordinates":[-104.9611199,39.67911]},"properties":{"name":"Sturm College of Law"}}, 
{"type":"Feature","geometry":{"type":"Point","coordinates":[-105.05229,39.75771]},"properties":{"name":"Children's Learning Center"}}, 
{"type":"Feature","geometry":{"type":"Point","coordinates":[-104.9947,39.75289]},"properties":{"name":"Denver School of Nursing"}}, 
{"type":"Feature","geometry":{"type":"Point","coordinates":[-104.98135,39.77335]},"properties":{"name":"Open Air Academy"}}, 
{"type":"Feature","geometry":{"type":"Point","coordinates":[-104.929489,39.7463399]},"properties":{"name":"Blessed Sacrament Catholic School"}}, 
{"type":"Feature","geometry":{"type":"Point","coordinates":[-104.999740600586,39.7334175109863]},"properties":{"name":"1080 Learning Center"}}, 
{"type":"Feature","geometry":{"type":"Point","coordinates":[-104.965995,39.709083]},"properties":{"name":"Washington Park Early Learning Center"}}, 
{"type":"Feature","geometry":{"type":"Point","coordinates":[-104.943155,39.76284]},"properties":{"name":"Clayton Early Learning"}}, 
{"type":"Feature","geometry":{"type":"Point","coordinates":[-104.92166,39.68999]},"properties":{"name":"Montessori School of Denver"}}, 
{"type":"Feature","geometry":{"type":"Point","coordinates":[-104.989067077637,39.7439231872559]},"properties":{"name":"Colorado State University"}}, 
{"type":"Feature","geometry":{"type":"Point","coordinates":[-104.958177602396,39.7124282289027]},"properties":{"name":"Child Enrichment Center"}}, 
{"type":"Feature","geometry":{"type":"Point","coordinates":[-105.079376,39.747322]},"properties":{"name":"Inspiration Preschool"}}, 
{"type":"Feature","geometry":{"type":"Point","coordinates":[-104.966384887695,39.6910781860352]},"properties":{"name":"South High School"}}, 
{"type":"Feature","geometry":{"type":"Point","coordinates":[-104.99659,39.74874]},"properties":{"name":"University of the Rockies"}}, 
{"type":"Feature","geometry":{"type":"Point","coordinates":[-105.015167236328,39.767448425293]},"properties":{"name":"Sandoval Elementary School"}}, 
{"type":"Feature","geometry":{"type":"Point","coordinates":[-104.94649708271,39.6769952774048]},"properties":{"name":"Parzival Shield Waldorf Preschool Kindegarten"}}, 
{"type":"Feature","geometry":{"type":"Point","coordinates":[-104.93185,39.74709]},"properties":{"name":"Montview Community Preschool & Kindergarten"}}, 
{"type":"Feature","geometry":{"type":"Point","coordinates":[-105.009376525879,39.774730682373]},"properties":{"name":"Denver Online High School"}}, 
{"type":"Feature","geometry":{"type":"Point","coordinates":[-104.98322,39.73871]},"properties":{"name":"Colorado Community Colleges"}}, 
{"type":"Feature","geometry":{"type":"Point","coordinates":[-104.9596786,39.6775284]},"properties":{"name":"Daniels College of Business"}}, 
{"type":"Feature","geometry":{"type":"Point","coordinates":[-104.96553,39.67873]},"properties":{"name":"Fisher Early Learning Center At the University of Denver"}}, 
{"type":"Feature","geometry":{"type":"Point","coordinates":[-104.97666,39.690708]},"properties":{"name":"The Goddard School"}}, 
{"type":"Feature","geometry":{"type":"Point","coordinates":[-104.980201721191,39.754712750802]},"properties":{"name":"Bright Horizons Montessori at Denver Place"}}, 
{"type":"Feature","geometry":{"type":"Point","coordinates":[-104.94135,39.66892]},"properties":{"name":"Early Childhood Education Center at Schlessman YMCA"}}, 
{"type":"Feature","geometry":{"type":"Point","coordinates":[-105.0698452,39.7433405]},"properties":{"name":"Rocky Mountain College of Art & Design"}}, 
{"type":"Feature","geometry":{"type":"Point","coordinates":[-104.95849,39.676301]},"properties":{"name":"University College"}}, 
{"type":"Feature","geometry":{"type":"Point","coordinates":[-104.9306904,39.6769947]},"properties":{"name":"Highline Academy"}}, 
{"type":"Feature","geometry":{"type":"Point","coordinates":[-104.904766604304,39.7474052757025]},"properties":{"name":"Johnson & Wales University"}}, 
{"type":"Feature","geometry":{"type":"Point","coordinates":[-104.90407,39.7376099]},"properties":{"name":"Paddington Station Preschool"}}, 
{"type":"Feature","geometry":{"type":"Point","coordinates":[-104.9795819,39.701776]},"properties":{"name":"Washington Street Community Center"}}, 
{"type":"Feature","geometry":{"type":"Point","coordinates":[-104.95639,39.72611]},"properties":{"name":"Good Shepherd Catholic School"}}, 
{"type":"Feature","geometry":{"type":"Point","coordinates":[-104.96777,39.76756]},"properties":{"name":"Wyatt-Edison Charter School"}}, 
{"type":"Feature","geometry":{"type":"Point","coordinates":[-105.0812851,39.7486563]},"properties":{"name":"Bethlehem Lutheran Church & School"}}, 
{"type":"Feature","geometry":{"type":"Point","coordinates":[-104.97162,39.7102]},"properties":{"name":"Steele Elementary School"}}, 
{"type":"Feature","geometry":{"type":"Point","coordinates":[-104.899709,39.753638]},"properties":{"name":"Primrose School at Stapleton"}}, 
{"type":"Feature","geometry":{"type":"Point","coordinates":[-104.933535,39.652689]},"properties":{"name":"Bethany Early Childhood Center"}}, 
{"type":"Feature","geometry":{"type":"Point","coordinates":[-105.0093799,39.77473]},"properties":{"name":"Smedley Elementary School"}}, 
{"type":"Feature","geometry":{"type":"Point","coordinates":[-104.96817,39.70346]},"properties":{"name":"St John's School"}}, 
{"type":"Feature","geometry":{"type":"Point","coordinates":[-104.963119,39.677482]},"properties":{"name":"Fritz Knoebel School of Hospitality Management"}}, 
{"type":"Feature","geometry":{"type":"Point","coordinates":[-104.999629794724,39.7468114748003]},"properties":{"name":"Cu Denver Building"}}, 
{"type":"Feature","geometry":{"type":"Point","coordinates":[-105.0553,39.73209]},"properties":{"name":"Lakewood Learning Center"}}, 
{"type":"Feature","geometry":{"type":"Point","coordinates":[-104.948928,39.704708]},"properties":{"name":"Stephen Knight Center for Early Education"}}, 
{"type":"Feature","geometry":{"type":"Point","coordinates":[-104.9209599,39.6851399]},"properties":{"name":"RMSEL"}}, 
{"type":"Feature","geometry":{"type":"Point","coordinates":[-105.042175381396,39.7813075256489]},"properties":{"name":"Centennial Elementary School"}}, 
{"type":"Feature","geometry":{"type":"Point","coordinates":[-104.926391601562,39.7479286193848]},"properties":{"name":"Childrens Center At Park Hill Umc"}}, 
{"type":"Feature","geometry":{"type":"Point","coordinates":[-104.9289299,39.71026]},"properties":{"name":"Augustana Early Learning Center"}}, 
{"type":"Feature","geometry":{"type":"Point","coordinates":[-105.015029907227,39.8485336303711]},"properties":{"name":"Mad Science of Colorado"}}, 
{"type":"Feature","geometry":{"type":"Point","coordinates":[-104.9289299,39.71026]},"properties":{"name":"Augustana Lutheran Church Elca"}}, 
{"type":"Feature","geometry":{"type":"Point","coordinates":[-104.924263000488,39.7170295715332]},"properties":{"name":"Carson Elementary School"}}, 
{"type":"Feature","geometry":{"type":"Point","coordinates":[-104.982421875,39.7030868530273]},"properties":{"name":"Larks Preschool"}}, 
{"type":"Feature","geometry":{"type":"Point","coordinates":[-105.075614929199,39.6441612243652]},"properties":{"name":"Addenbrooke Classical Academy"}}, 
{"type":"Feature","geometry":{"type":"Point","coordinates":[-104.9458499,39.68873]},"properties":{"name":"Merrill Junior High School"}}, 
{"type":"Feature","geometry":{"type":"Point","coordinates":[-104.9495392,39.6888199]},"properties":{"name":"Cory Elementary School"}}, 
{"type":"Feature","geometry":{"type":"Point","coordinates":[-104.919901639223,39.7644037753344]},"properties":{"name":"King Baptist Preschool & Day Care"}}, 
{"type":"Feature","geometry":{"type":"Point","coordinates":[-104.941841125488,39.6920127868652]},"properties":{"name":"National American University"}}, 
{"type":"Feature","geometry":{"type":"Point","coordinates":[-104.95968,39.67753]},"properties":{"name":"University of Denver"}}, 
{"type":"Feature","geometry":{"type":"Point","coordinates":[-104.895202359244,39.723413882641]},"properties":{"name":"Primrose School at Lowry"}}, 
{"type":"Feature","geometry":{"type":"Point","coordinates":[-104.91737,39.70838]},"properties":{"name":"Rodef Shalom Preschool"}}, 
{"type":"Feature","geometry":{"type":"Point","coordinates":[-104.9205,39.69791]},"properties":{"name":"McMeen Elementary School"}}, 
{"type":"Feature","geometry":{"type":"Point","coordinates":[-105.02845,39.61898]},"properties":{"name":"H&H Early Learning Center"}}, 
{"type":"Feature","geometry":{"type":"Point","coordinates":[-104.96118,39.66681]},"properties":{"name":"St Anne's Episcopal School"}}, 
{"type":"Feature","geometry":{"type":"Point","coordinates":[-104.938819885254,39.6728553771973]},"properties":{"name":"Adventures In Learning"}}, 
{"type":"Feature","geometry":{"type":"Point","coordinates":[-104.985915551369,39.7459184221826]},"properties":{"name":"Downtown Denver Expeditionary School"}}, 
{"type":"Feature","geometry":{"type":"Point","coordinates":[-105.014982546783,39.6975525932144]},"properties":{"name":"Goldrick Elementary School"}}, 
{"type":"Feature","geometry":{"type":"Point","coordinates":[-104.98215,39.74958]},"properties":{"name":"Polaris At Ebert"}}, 
{"type":"Feature","geometry":{"type":"Point","coordinates":[-105.0437,39.7685]},"properties":{"name":"Cesar Chavez Academy"}}, 
{"type":"Feature","geometry":{"type":"Point","coordinates":[-104.921417236328,39.67578125]},"properties":{"name":"Denver KinderCare"}}, 
{"type":"Feature","geometry":{"type":"Point","coordinates":[-104.9809,39.6467699]},"properties":{"name":"Englewood High School"}}, 
{"type":"Feature","geometry":{"type":"Point","coordinates":[-104.961135864258,39.6335105895996]},"properties":{"name":"St. Mary's Academy"}}, 
{"type":"Feature","geometry":{"type":"Point","coordinates":[-104.900364428759,39.7652982920408]},"properties":{"name":"Creative Learning Preschool"}}, 
{"type":"Feature","geometry":{"type":"Point","coordinates":[-104.981051,39.677625]},"properties":{"name":"Denver Waldorf School"}}, 
{"type":"Feature","geometry":{"type":"Point","coordinates":[-105.06755,39.64781]},"properties":{"name":"Colorado Academy"}}, 
{"type":"Feature","geometry":{"type":"Point","coordinates":[-105.0399,39.76486]},"properties":{"name":"Edison Elementary School"}}, 
{"type":"Feature","geometry":{"type":"Point","coordinates":[-104.909965515137,39.7335319519043]},"properties":{"name":"Montclair Elementary School"}}, 
{"type":"Feature","geometry":{"type":"Point","coordinates":[-105.06762,39.6625299]},"properties":{"name":"John F Kennedy High School"}}, 
{"type":"Feature","geometry":{"type":"Point","coordinates":[-105.038367,39.761832]},"properties":{"name":"NinaBees Early Childhood Education"}}, 
{"type":"Feature","geometry":{"type":"Point","coordinates":[-105.054565429688,39.8383331298828]},"properties":{"name":"Radiance Montessori School"}}, 
{"type":"Feature","geometry":{"type":"Point","coordinates":[-105.078819274902,39.8338088989258]},"properties":{"name":"Hackberry Hill Elementary School"}}, 
{"type":"Feature","geometry":{"type":"Point","coordinates":[-104.955688476562,39.6613121032715]},"properties":{"name":"Slavens Elementary School"}}, 
{"type":"Feature","geometry":{"type":"Point","coordinates":[-104.96071,39.75165]},"properties":{"name":"Saint Elizabeth's School"}}, 
{"type":"Feature","geometry":{"type":"Point","coordinates":[-104.97142791748,39.723445892334]},"properties":{"name":"Denver Cooperative Preschool"}}, 
{"type":"Feature","geometry":{"type":"Point","coordinates":[-105.07991,39.64139]},"properties":{"name":"Havern School"}}, 
{"type":"Feature","geometry":{"type":"Point","coordinates":[-104.90159,39.65617]},"properties":{"name":"Argosy University"}}, 
{"type":"Feature","geometry":{"type":"Point","coordinates":[-104.93451,39.67356]},"properties":{"name":"Denver Academy"}}, 
{"type":"Feature","geometry":{"type":"Point","coordinates":[-104.985725402832,39.7457656860352]},"properties":{"name":"Denver Public Schools Board of Education"}}, 
{"type":"Feature","geometry":{"type":"Point","coordinates":[-104.979583,39.701774]},"properties":{"name":"Washington Street Community Center"}}, 
{"type":"Feature","geometry":{"type":"Point","coordinates":[-105.08247,39.73313]},"properties":{"name":"Jefferson County Open School"}}, 
{"type":"Feature","geometry":{"type":"Point","coordinates":[-104.966807,39.725881]},"properties":{"name":"Bright Star Early Learning Center"}}, 
{"type":"Feature","geometry":{"type":"Point","coordinates":[-105.001831054688,39.7451689065156]},"properties":{"name":"North Classroom"}}, 
{"type":"Feature","geometry":{"type":"Point","coordinates":[-104.93852,39.68348]},"properties":{"name":"Stillwater College -Phlebotomy School"}}, 
{"type":"Feature","geometry":{"type":"Point","coordinates":[-104.97248,39.7444599]},"properties":{"name":"Kempe Children's Center"}}, 
{"type":"Feature","geometry":{"type":"Point","coordinates":[-105.076404513934,39.7708445931353]},"properties":{"name":"Stevens Elementary"}}, 
{"type":"Feature","geometry":{"type":"Point","coordinates":[-104.8946609,39.65382]},"properties":{"name":"Positive Alternative Preschool"}}, 
{"type":"Feature","geometry":{"type":"Point","coordinates":[-105.055611,39.73213]},"properties":{"name":"Thomas Learning Centers"}}, 
{"type":"Feature","geometry":{"type":"Point","coordinates":[-104.94738,39.67711]},"properties":{"name":"Accelerated Schools"}}, 
{"type":"Feature","geometry":{"type":"Point","coordinates":[-104.9408949,39.6913289]},"properties":{"name":"CollegeAmerica - Denver Campus"}}, 
{"type":"Feature","geometry":{"type":"Point","coordinates":[-104.948082,39.736992]},"properties":{"name":"BIG Childcare"}}, 
{"type":"Feature","geometry":{"type":"Point","coordinates":[-104.9785154,39.6871752]},"properties":{"name":"Platt Park Children's Center"}}, 
{"type":"Feature","geometry":{"type":"Point","coordinates":[-104.98239,39.84743]},"properties":{"name":"Universidad Regis"}}, 
{"type":"Feature","geometry":{"type":"Point","coordinates":[-104.95507,39.6928]},"properties":{"name":"Sophia Montessori Academy"}}, 
{"type":"Feature","geometry":{"type":"Point","coordinates":[-104.99889,39.8492]},"properties":{"name":"Pinnacle Charter School"}}, 
{"type":"Feature","geometry":{"type":"Point","coordinates":[-105.006727290558,39.7817247004112]},"properties":{"name":"Strive Preparatory Schools"}}, 
{"type":"Feature","geometry":{"type":"Point","coordinates":[-105.024436,39.772515]},"properties":{"name":"Columbian Elementary School"}}, 
{"type":"Feature","geometry":{"type":"Point","coordinates":[-105.0296551,39.6837524]},"properties":{"name":"Johnson Elementary School"}}, 
{"type":"Feature","geometry":{"type":"Point","coordinates":[-104.912124633789,39.6477088928223]},"properties":{"name":"Southmoor Elementary"}}, 
{"type":"Feature","geometry":{"type":"Point","coordinates":[-105.0777251,39.7335634]},"properties":{"name":"St Bernadette Catholic Church & School"}}, 
{"type":"Feature","geometry":{"type":"Point","coordinates":[-105.06124,39.78211]},"properties":{"name":"Hoa License"}}, 
{"type":"Feature","geometry":{"type":"Point","coordinates":[-105.045562744141,39.775505065918]},"properties":{"name":"Arrupe Jesuit High School"}}, 
{"type":"Feature","geometry":{"type":"Point","coordinates":[-104.925170898438,39.7319564819336]},"properties":{"name":"Palmer Elementary School"}}, 
{"type":"Feature","geometry":{"type":"Point","coordinates":[-105.0813734,39.7047095]},"properties":{"name":"Denver Christian School"}}, 
{"type":"Feature","geometry":{"type":"Point","coordinates":[-105.08435,39.86192]},"properties":{"name":"Wooden Shoe Pre-School & Kindergarten"}}, 
{"type":"Feature","geometry":{"type":"Point","coordinates":[-105.00244,39.83165]},"properties":{"name":"Pima Medical Institute - Denver"}}, 
{"type":"Feature","geometry":{"type":"Point","coordinates":[-105.0815649,39.7357002]},"properties":{"name":"Alameda Senior High School"}}, 
{"type":"Feature","geometry":{"type":"Point","coordinates":[-104.92981,39.66278]},"properties":{"name":"Bradley International School"}}, 
{"type":"Feature","geometry":{"type":"Point","coordinates":[-104.9302238,39.6590149]},"properties":{"name":"The Rise School of Denver"}}, 
{"type":"Feature","geometry":{"type":"Point","coordinates":[-105.083777357286,39.6565982205516]},"properties":{"name":"Precious Angels Preschool"}}, 
{"type":"Feature","geometry":{"type":"Point","coordinates":[-105.050331115723,39.8061447143555]},"properties":{"name":"Early College High School"}}, 
{"type":"Feature","geometry":{"type":"Point","coordinates":[-104.92948,39.7463399]},"properties":{"name":"Denver School of Science & Technology"}}, 
{"type":"Feature","geometry":{"type":"Point","coordinates":[-105.0746829,39.738239]},"properties":{"name":"Pacific College of Allied Health"}}, 
{"type":"Feature","geometry":{"type":"Point","coordinates":[-105.053212791681,39.7168810665607]},"properties":{"name":"Crayon Academy"}}, 
{"type":"Feature","geometry":{"type":"Point","coordinates":[-104.979042053223,40.0220985412598]},"properties":{"name":"Reading With Phonics Tutoring Services"}}, 
{"type":"Feature","geometry":{"type":"Point","coordinates":[-104.9220351,39.8225624]},"properties":{"name":"Community Leadership Academy"}}, 
{"type":"Feature","geometry":{"type":"Point","coordinates":[-104.937438964844,39.825870513916]},"properties":{"name":"Alsup Elementary"}}, 
{"type":"Feature","geometry":{"type":"Point","coordinates":[-105.034672692418,39.6505077928305]},"properties":{"name":"Mullen High School"}}, 
{"type":"Feature","geometry":{"type":"Point","coordinates":[-105.0812251,39.67127]},"properties":{"name":"Zion Lutheran Church & School"}}, 
{"type":"Feature","geometry":{"type":"Point","coordinates":[-104.98239,39.84743]},"properties":{"name":"Kaplan Career Institute"}}, 
{"type":"Feature","geometry":{"type":"Point","coordinates":[-105.03582,39.62492]},"properties":{"name":"St. James Preschool and Kindergarten"}}, 
{"type":"Feature","geometry":{"type":"Point","coordinates":[-104.9082349,39.8198831]},"properties":{"name":"Kemp Elementary"}}, 
{"type":"Feature","geometry":{"type":"Point","coordinates":[-105.0358399,39.62021]},"properties":{"name":"Willows Child Learning Centers"}}, 
{"type":"Feature","geometry":{"type":"Point","coordinates":[-104.9605799,39.67574]},"properties":{"name":"Iliff School of Theology"}}, 
{"type":"Feature","geometry":{"type":"Point","coordinates":[-105.030227661133,39.6162643432617]},"properties":{"name":"Centennial Elementary School"}}, 
{"type":"Feature","geometry":{"type":"Point","coordinates":[-104.92056,39.64767]},"properties":{"name":"Thomas Jefferson High School"}}, 
{"type":"Feature","geometry":{"type":"Point","coordinates":[-105.064231,39.616931]},"properties":{"name":"Grant Ranch Elementary School"}}, 
{"type":"Feature","geometry":{"type":"Point","coordinates":[-105.05069,39.85223]},"properties":{"name":"University of Phoenix"}}, 
{"type":"Feature","geometry":{"type":"Point","coordinates":[-104.985969543457,39.8301849365234]},"properties":{"name":"Redstone College"}}, 
{"type":"Feature","geometry":{"type":"Point","coordinates":[-105.008460998535,39.6461410522461]},"properties":{"name":"Sheridan School District 2"}}, 
{"type":"Feature","geometry":{"type":"Point","coordinates":[-104.93528,39.82129]},"properties":{"name":"Adams City High School"}}, 
{"type":"Feature","geometry":{"type":"Point","coordinates":[-105.015708,39.6424191]},"properties":{"name":"Sheridan Senior High School"}}, 
{"type":"Feature","geometry":{"type":"Point","coordinates":[-105.04053,39.63418]},"properties":{"name":"Kaiser Elementary School"}}, 
{"type":"Feature","geometry":{"type":"Point","coordinates":[-105.03959,39.85112]},"properties":{"name":"Westminster Learning Center"}}, 
{"type":"Feature","geometry":{"type":"Point","coordinates":[-105.0392,39.851238]},"properties":{"name":"Thomas Learning Centers"}}, 
{"type":"Feature","geometry":{"type":"Point","coordinates":[-105.0336,39.86123]},"properties":{"name":"Mesa Elementary School"}}]} 
